{
	"code": 200,
	"msg": null,
	"data": {
		"items": [{
			"cinema_name": "太平洋影城（王府井店）",
			"address": "锦江区总府路15号王府井百货",
			"min_price": 36.0,
			"price": 3600,
			"latitude": "30.658497596856517",
			"id": 4810,
			"cinema_distance": 10.17,
			"longitude": "104.0792664885521",
			"cinema_id": 4810
		}, {
			"cinema_name": "太平洋影城（金沙店）",
			"address": "青羊区清江西路51号中大君悦广场4层",
			"min_price": 39.0,
			"price": 4500,
			"latitude": "30.676733",
			"id": 5359,
			"cinema_distance": 13.17,
			"longitude": "103.997506",
			"cinema_id": 5359
		}, {
			"cinema_name": "太平洋影城（沙湾店）",
			"address": "金牛区二环路北一段10号营门口至交大立交方向二环路内侧凯德广场四楼",
			"min_price": 34.0,
			"price": 3900,
			"latitude": "30.6935978911",
			"id": 5534,
			"cinema_distance": 13.85,
			"longitude": "104.0456920938",
			"cinema_id": 5534
		}, {
			"cinema_name": "太平洋影城（武侯店）",
			"address": "武侯区一环路高升桥武侯大街266号购书中心四楼",
			"min_price": 34.0,
			"price": 3400,
			"latitude": "30.6418003455",
			"id": 5579,
			"cinema_distance": 8.16,
			"longitude": "104.0418051525",
			"cinema_id": 5579
		}, {
			"cinema_name": "太平洋影城（紫荆店）",
			"address": "武侯区二环路南三段紫荆北路2号",
			"min_price": 37.0,
			"price": 3700,
			"latitude": "30.621033",
			"id": 5692,
			"cinema_distance": 5.75,
			"longitude": "104.053898",
			"cinema_id": 5692
		}, {
			"cinema_name": "太平洋影城（千盛店）",
			"address": "武侯区晋阳路269号千盛百货购物广场三楼",
			"min_price": 30.0,
			"price": 3000,
			"latitude": "30.6494817588",
			"id": 5862,
			"cinema_distance": 10.45,
			"longitude": "103.9986016669",
			"cinema_id": 5862
		}, {
			"cinema_name": "太平洋影城（新城市店）",
			"address": "青羊区西大街1号新城市广场A栋2楼",
			"min_price": 34.0,
			"price": 3400,
			"latitude": "30.6739662181",
			"id": 6024,
			"cinema_distance": 11.63,
			"longitude": "104.0583894502",
			"cinema_id": 6024
		}, {
			"cinema_name": "太平洋影城（新津店）",
			"address": "新津县迎宾大道74号",
			"min_price": 34.0,
			"price": 3900,
			"latitude": "30.421386",
			"id": 6067,
			"cinema_distance": 28.79,
			"longitude": "103.809054",
			"cinema_id": 6067
		}, {
			"cinema_name": "太平洋影城（川师店）",
			"address": "锦江区花园街31号万科城市花园10栋B1层9号",
			"min_price": 34.0,
			"price": 3400,
			"latitude": "30.6166144511",
			"id": 6197,
			"cinema_distance": 7.71,
			"longitude": "104.1145951444",
			"cinema_id": 6197
		}],
		"total": 34
	}
}